name,market_open,lat,lng,toilet,garage
성정시장,매일,36.81267105,127.1392027,Y,Y
일동전통시장,매일,37.95978103,127.3194792,Y,Y
운천전통시장,4일+9일,38.0899666,127.2722253,Y,Y
통복시장,5일+10일,36.99782533,127.0850763,Y,Y
송탄시장,4일+9일,37.08146214,127.0567273,Y,Y
안중시장,1일+6일,36.98766055,126.9276616,Y,Y
평택국제중앙시장,매일,37.07987834,127.0521939,Y,Y
서정리시장,2일+7일,37.05742213,127.0555064,Y,Y
봉일천시장,2일+7일,37.74353235,126.8078457,Y,Y
전주신중앙시장(신중앙시장),매일,35.8241473,127.1434872,Y,Y
모래내시장(전주),매일,35.833574,127.1438694,Y,Y
금촌명동로시장,매일,37.76330134,126.773362,Y,Y
금촌문화로시장,매일,37.76225007,126.7748519,Y,Y
석바위시장,매일,37.46015327,126.6927408,Y,Y
용현시장,매일,37.45756673,126.6503669,Y,Y
장호원전통시장,4일+9일,37.11809055,127.631251,Y,Y
사기막골도자기시장,매일,37.29483104,127.4119796,Y,Y
관고전통시장,2일+7일,37.2808079,127.4403637,Y,Y
의정부제일시장,매일,37.74011951,127.0500672,Y,Y
의정부청과야채시장,매일,,,Y,Y
의정부시장,매일,37.73944331,127.0511786,Y,Y
의왕도깨비시장,매일,37.3194783,126.9507208,Y,Y
신정상가시장,매일,35.54197244,129.3090699,Y,N
죽전로데오상점가시장,매일,37.32876491,127.1080484,Y,Y
오색시장,3일+8일,37.15133204,127.0709405,Y,Y
전곡전통시장,매일,38.02715221,127.0681662,Y,Y
여주한글시장(여주중앙로상점가),5일+10일,37.29755162,127.6342927,Y,Y
용문천년시장,5일+10일,37.48396864,127.5947554,Y,Y
상계중앙시장,매일,37.65994072,127.0698633,Y,Y
양수리전통시장(양평양수리시장),1일+6일,37.54506648,127.3197944,Y,Y
기장시장,매일,35.24369155,129.2148692,Y,Y
중부농수산물시장,매일,37.39590837,126.9256223,Y,Y
안양중앙인정시장,매일,37.39648106,126.9195685,Y,Y
육동시장,매일,37.39058613,126.9302236,N,N
석수시장,매일,37.4128602,126.9079728,Y,Y
왜관시장,1일+6일,35.9951519,128.39825,Y,Y
중앙시장,매일,37.39757136,126.919669,Y,Y
안양남부시장,매일,37.39593498,126.924956,Y,Y
안양호계종합시장,매일,37.37338078,126.9582499,Y,Y
안양관양시장,매일,37.4052233,126.9593052,Y,N
죽산시장,5일+10일,37.07598943,127.4233876,Y,Y
일죽시장,매일,37.09336892,127.4784203,Y,Y
중앙시장,2일+7일,37.00656227,127.2687966,Y,Y
안성맞춤시장,매일,37.00663081,127.2703585,Y,Y
안산 다농마트 전통시장,매일,37.32836033,126.8442469,Y,Y
안산패션타운전통시장,매일,37.30497907,126.8446674,Y,Y
월드프라자,매일,37.30056356,126.8664563,Y,Y
신안프라자전통시장,매일,37.29647214,126.8658207,Y,Y
황금시장,5일+10일,36.11666261,128.1252827,Y,Y
스타프라자전통시장,매일,37.32081031,126.8447251,Y,Y
제주시서문공설시장,매일,33.51134646,126.5179035,Y,Y
연풍전통시장,2일+7일,36.76472468,127.9951005,Y,Y
목도재래시장,4일+9일,36.87204755,127.8530473,Y,Y
전주남부시장,매일,35.81278651,127.1475386,Y,Y
홍성전통시장,1일+6일,36.60214738,126.6680243,Y,Y
홍성상설시장,매일,36.59973826,126.6637095,Y,Y
광천문화시장,4일+9일,36.50232616,126.6250081,Y,N
광천전통시장,4일+9일,36.4998307,126.6252434,Y,Y
갈산전통시장,3일+8일,36.6036997,126.5505509,Y,Y
태안서부시장,매일,36.75299449,126.2968375,Y,Y
안면도수산시장(안면도장터),매일,36.51635222,126.3460071,Y,Y
태안동부시장(태안특산물전통시장),3일+8일,36.78114144,126.4582001,Y,Y
정산시장,5일+10일,36.41059786,126.9480121,Y,Y
청양전통시장,2일+7일,36.45048364,126.8018476,Y,Y
북부시장,4일+9일,35.94821919,126.9565852,Y,Y
봉동시장,5일+10일,35.93871982,127.1670778,Y,Y
병천시장,1일+6일,36.76242111,127.2981701,Y,Y
천안중앙시장(구 남산중앙시장),매일,36.80032317,127.1484498,Y,Y
천안역전시장,매일,36.81006288,127.1498779,Y,Y
삽교시장,2일+5일,36.68742244,126.7410344,Y,Y
예산시장,5일+10일,36.67723471,126.8494508,Y,Y
예산상설시장,5일+10일,36.67723471,126.8494508,Y,Y
역전시장,3일+8일,36.68704166,126.829854,Y,Y
덕산시장,4일+9일,36.70498477,126.6681533,Y,Y
광시시장,3일+8일,36.54911162,126.7744446,Y,Y
안산시시민시장,5일+10일,37.32536495,126.8050908,Y,Y
안강공설시장,4일+9일,35.99030205,129.2217127,Y,Y
궁평항해오름수산시장,매일,37.11602674,126.6812763,Y,Y
오이도전통수산시장,매일,37.34588337,126.6882074,Y,Y
정왕시장,매일,37.34580179,126.748564,Y,Y
시흥삼미시장,매일,37.44040657,126.7838201,Y,Y
도일시장,3일+8일,37.33934833,126.7839859,Y,Y
팔달문시장,매일,37.27685014,127.0178829,Y,Y
역전시장,매일,37.26630163,127.0023389,Y,Y
남문패션1번가시장,매일,37.27562469,127.0181081,N,N
못골종합시장,매일,37.27618303,127.0200138,Y,Y
남문로데오시장,매일,37.27463391,127.0155146,Y,Y
구천동공구상가시장,매일,37.27211975,127.0173519,Y,Y
매산시장,매일,37.26457025,127.0033483,N,N
미나리광시장,매일,37.27727335,127.0196307,Y,Y
화서시장,매일,37.27858147,127.0020973,Y,Y
지동시장,매일,37.27788606,127.0196309,Y,Y
영동시장,매일,37.27681569,127.0186497,Y,Y
시민상가시장,매일,37.27667892,127.0179844,Y,N
북수원시장,매일,37.30704501,126.992183,N,Y
조원시장,매일,37.30078207,127.0153395,Y,N
반딧불이연무시장,매일,37.29395937,127.0259733,Y,Y
장안문거북시장,매일,37.29315046,127.0139733,Y,Y
정자시장,매일,37.29069027,127.0008813,Y,Y
구매탄시장,매일,37.27260017,127.0419199,Y,Y
권선종합시장,매일,37.25609894,127.0245738,Y,Y
모란가축시장,매일,37.4303345,127.1288817,N,Y
은행시장,매일,37.45758204,127.164475,Y,Y
모란종합시장,4일+9일,37.4303345,127.1288817,Y,Y
용인중앙시장,5일+10일,37.23671682,127.2078548,Y,Y
금광시장,매일,37.45003783,127.159904,Y,Y
모란전통기름시장,매일,37.4309121,127.1280127,Y,Y
시화공구상가,매일,37.33771151,126.7247015,Y,Y
상대원시장,매일,37.43597453,127.158778,Y,Y
하대원공설시장,매일,37.42740887,127.1422648,Y,Y
현대시장,매일,37.4417019,127.1319748,Y,Y
중앙공설시장,매일,37.44139541,127.1321099,Y,Y
코코프라자시장,매일,37.38586536,127.1240404,Y,Y
현대시장(분당),매일,37.37970477,127.1301725,Y,Y
정선아리랑시장,2일+7일,37.3803854,128.6652325,Y,Y
금호행복시장(금호시장),매일,37.37665581,127.1162348,Y,Y
미금현대벤처빌시장,매일,37.34928693,127.1117684,Y,Y
범한프라자시장,매일,37.37163004,127.1394386,Y,Y
미래그린시장,매일,37.37341572,127.1380307,Y,Y
미래타운제2종합시장,매일,37.37225503,127.1388863,Y,Y
분당우성시장,매일,37.37818238,127.1323819,Y,Y
동신종합시장,매일,37.37062115,127.1229653,Y,Y
현대프라자시장,매일,37.3699897,127.1236643,Y,Y
분당종합시장,매일,37.36718424,127.1267528,Y,Y
코끼리시장,매일,37.37314665,127.1204067,Y,Y
돌고래시장,매일,37.37153075,127.1221765,Y,Y
제천고추시장,매일,37.15643952,128.1750444,Y,Y
제천역전한마음시장,3일+8일,37.1289856,128.2064541,Y,Y
제천약초시장,매일,37.12788708,128.219591,Y,Y
동문전통시장,매일,37.13850912,128.2135267,N,Y
내토전통시장,매일,37.1373583,128.2124054,Y,Y
음성시장,2일+7일,36.93816952,127.6921309,Y,Y
단양구경시장(단양인정시장),1일+6일,36.9824892,128.3699866,Y,Y
박달재전통시장,1일+6일,37.13820858,128.02257,Y,Y
청천전통시장,5일+10일,36.65914155,127.7378523,Y,Y
성환이화시장,1일+6일,36.91925493,127.1298906,Y,Y
삼성시장,1일+6일,37.01800836,127.4991966,Y,Y
대소시장,3일+8일,36.96654372,127.4850145,Y,Y
무극시장,5일+10일,36.99267414,127.5960077,Y,Y
감곡시장,3일+8일,37.11822831,127.6391733,Y,Y
옥천공설시장,매일,36.30251559,127.5679118,Y,Y
옥천상가,매일,36.302388,127.5682115,Y,Y
영동전통시장,4일+9일,36.17521123,127.7756379,Y,Y
영동중앙시장,4일+9일,36.17467013,127.7756992,Y,Y
회인재래시장,4일+9일,36.49052262,127.5978628,Y,N
삼승원남시장(원남재래시장),3일+8일,36.39692314,127.7331366,Y,Y
보은전통시장,1일+6일,36.48430017,127.7201103,Y,Y
결초보은시장(구 보은종합시장),1일+6일,36.48291338,127.7193275,Y,Y
마로관기시장(관기재래시장),4일+9일,36.43524115,127.8175958,Y,Y
매포전통시장(매포재래시장),4일+9일,37.03422177,128.2990703,Y,Y
당진전통시장,5일+10일,36.88993159,126.6296051,Y,Y
괴산전통시장,3일+8일,36.81122141,127.795017,Y,Y
무주시장(반딧불장터),1일+6일,36.00464857,127.6535343,Y,Y
여수서시장주변시장,4일+9일,34.74075239,127.7283238,Y,Y
부천제일시장,매일,37.52795693,126.8097237,N,Y
부평종합시장,매일,37.49649796,126.7266075,Y,Y
원미부흥시장,매일,37.49203622,126.7898115,Y,N
영천시장,매일,37.57033385,126.961853,Y,N
오정시장,매일,37.52597863,126.7857002,N,N
고리울동굴시장,매일,37.52554379,126.8222757,N,Y
청과물시장,매일,37.48158095,126.7779919,N,N
소사종합시장,매일,37.4796637,126.7939615,Y,Y
부천한신시장,매일,37.47312039,126.7980266,Y,Y
부천자유시장,매일,37.48410744,126.7799517,Y,N
청량리수산시장,매일,37.57807246,127.0409472,Y,N
부천상동시장,매일,37.49235745,126.7642776,Y,Y
신흥시장,매일,37.51533645,126.7705849,Y,Y
화곡본동시장,매일,37.54286486,126.8441413,Y,N
문창전통시장,매일,36.31551575,127.4381793,Y,Y
세아프라자상가,매일,37.90072388,127.0505851,Y,Y
동두천큰시장,5일+10일,37.90048898,127.0520744,Y,Y
중앙시장,매일,37.90690295,127.0537505,Y,Y
동두천제일시장,매일,37.90517383,127.0522256,Y,Y
남양주장현 전통시장,2일+7일,37.71761125,127.1808928,Y,N
양곡오라니장터시장,매일,37.65616267,126.6237015,Y,Y
양곡시장,매일,37.65446014,126.6238008,Y,N
통진시장,매일,37.69129373,126.5997032,N,N
단촌정기시장,5일+10일,36.42254768,128.6739013,Y,N
하남수산물전통시장,매일,37.54878774,127.1847843,Y,Y
구리전통시장,매일,37.59953937,127.1399081,Y,Y
신장전통시장,매일,37.53844526,127.2059739,Y,Y
광명전통시장,매일,37.47994501,126.8561659,Y,Y
광명새마을시장,매일,37.47365007,126.8513959,Y,Y
제일쇼핑시장,매일,37.42733209,126.9929952,Y,Y
과천새서울프라자시장,매일,37.42682749,126.9925547,Y,Y
덕이동패션1번지,매일,37.69302668,126.7557864,Y,Y
일산시장,매일,37.68562383,126.7708323,Y,Y
능곡시장,2일+7일,37.62134419,126.8207793,Y,Y
원당시장,매일,37.65628119,126.8372523,N,Y
청평여울시장,2일+7일,37.73472058,127.4158569,Y,Y
봉천제일종합시장,매일,37.48125387,126.944419,Y,Y
설악눈메골시장,1일+6일,37.67738641,127.492189,Y,Y
횡성시장,1일+6일,37.48980622,127.9868107,Y,Y
화천시장,3일+8일,38.10390585,127.7064275,Y,Y
홍천시장,매일,37.6905533,127.8862031,Y,Y
홍천중앙시장,매일,37.69108507,127.8861626,Y,N
평창올림픽시장(평창전통시장),5일+10일,37.3672356,128.3947764,Y,Y
진부전통시장,3일+8일,37.63821324,128.5579223,Y,Y
양동건어물시장,매일,35.15316871,126.9033339,Y,Y
평창대화시장,4일+9일,37.50118639,128.4546766,Y,Y
황지자유시장,매일,37.17307273,128.9929989,Y,Y
장성중앙시장,매일,37.10068146,129.0097148,Y,Y
춘천후평시장,매일,37.88078864,127.7467911,Y,Y
연원시장,4일+9일,36.98929115,127.9348022,Y,Y
연수상가,매일,36.98746934,127.9315787,N,Y
엄정내창시장,3일+8일,37.08614422,127.9163422,Y,Y
"성서중심시장(성서시장,문화의거리 통합)",매일,36.97133411,127.9323927,Y,Y
관아골상가,매일,36.97012329,127.9351179,Y,Y
무학시장,매일,36.97459102,127.9272665,Y,Y
목행시장,3일+8일,37.01395405,127.9173286,Y,Y
충주농산물종합시장(중앙청과시장),매일,37.00399789,127.9230847,Y,Y
하복대시장,매일,36.63564465,127.4274621,N,N
직지시장,매일,36.64658274,127.466327,Y,Y
복대가경시장,매일,36.6295133,127.4432597,Y,Y
가경터미널시장,매일,36.62770577,127.434909,Y,Y
오창전통시장,3일+8일,36.74173743,127.455627,Y,Y
내수전통시장,5일+10일,36.72629088,127.536012,Y,Y
청주두꺼비시장(구수곡시장),매일,36.61744097,127.4729928,Y,N
진천중앙시장,5일+10일,36.85685858,127.4423712,Y,Y
원마루시장,매일,36.60903727,127.496414,Y,N
운수대통 생거진천전통시장,5일+10일,36.85993722,127.4501613,Y,Y
사직시장,매일,36.63614197,127.4768752,Y,Y
육거리종합시장,2일+7일,36.62794095,127.4881836,Y,Y
서문시장,매일,36.63511643,127.4853665,Y,Y
중앙시장,매일,36.63883141,127.4889294,Y,N
청주사창시장,매일,36.63361051,127.4652985,Y,Y
증평장뜰시장,1일+6일,36.78338958,127.5829564,Y,Y
제천중앙시장,매일,37.13662174,128.211302,Y,Y
충주자유시장,5일+10일,36.97393363,127.9306725,Y,Y
충주옹달샘시장,매일,36.9646875,127.9325814,Y,Y
송현시장,매일,37.476161,126.634645,Y,Y
송림공구상가,매일,37.48359521,126.6622078,Y,Y
인천산업용품유통센터,매일,37.48482619,126.6547965,Y,Y
현대시장,매일,37.47748437,126.646125,Y,Y
동부시장,매일,37.47699523,126.6452568,Y,Y
동래시장,매일,35.20380978,129.0859348,Y,Y
만수시장,매일,37.46005013,126.7317927,Y,Y
도마큰시장,매일,36.31588924,127.3812125,Y,Y
구월도매전통시장,매일,37.44366156,126.7056342,N,Y
중앙도매시장,매일,36.32955629,127.4331792,Y,Y
구월시장,매일,37.45336497,126.7202774,Y,Y
남동산업용품상가,매일,37.40695016,126.693402,Y,Y
자유도매시장,매일,36.32923615,127.4320061,Y,Y
용운시장,매일,36.32781371,127.460578,Y,Y
칠곡시장,1일+6일,35.94250975,128.5512474,Y,Y
달서시장,매일,35.83985102,128.5442655,Y,Y
강화터미널상가,매일,37.73977639,126.4904031,Y,Y
강화풍물시장,2일+7일,37.74141775,126.4928651,Y,Y
강화중앙시장(a동b동),매일,37.74685651,126.4838644,Y,Y
학성종합시장,매일,35.55441933,129.3320409,Y,N
학성새벽시장,매일,35.55664635,129.3326908,Y,Y
역전시장,매일,35.55619602,129.3284877,Y,Y
구역전시장,매일,35.55730561,129.3284205,Y,Y
구역전전통시장,매일,35.55590905,129.3279501,Y,N
신중앙시장,매일,35.55546763,129.3284115,Y,Y
태화종합시장,5일+10일,35.55419984,129.307414,Y,Y
우정전통시장,5일+10일,35.55396087,129.3107259,Y,N
인천종합어시장,매일,37.4541313,126.6071645,Y,Y
신포시장,매일,37.47146344,126.627806,Y,Y
신흥시장,매일,37.46605786,126.6366385,Y,Y
백련시장,매일,37.57700937,126.9231105,Y,Y
연수구옥련시장,매일,37.42461526,126.6468259,N,N
망원시장,매일,37.55715742,126.9059507,Y,Y
남성사계시장,매일,37.48816723,126.9815693,Y,Y
인천강남시장,매일,37.51122049,126.6719915,Y,Y
답십리현대시장,매일,37.56677553,127.058644,Y,Y
은행나무시장,매일,37.4513186,126.9093496,N,Y
조원동펭귄시장,매일,37.48314387,126.9114142,N,N
일신시장(부일종합시장),매일,37.48471821,126.7432825,Y,Y
봉천현대시장,매일,37.48643059,126.946586,Y,Y
둔촌역전통시장,매일,37.52748326,127.1351577,Y,Y
부평깡시장,매일,37.49788036,126.7265347,Y,Y
해운대시장,매일,35.16140447,129.1623121,Y,Y
우동종합상가시장,매일,35.17067916,129.1388637,Y,Y
학익시장,매일,37.44350822,126.6649646,Y,Y
인천남부종합시장,매일,37.44737486,126.6783959,Y,Y
신기시장,매일,37.44621321,126.6786492,Y,Y
신평골목시장,매일,35.09107824,128.9771235,Y,Y
토지금고시장,매일,37.45154621,126.6378049,Y,Y
개금골목시장,매일,35.15183238,129.0247972,Y,N
인천용남시장,매일,37.45189911,126.6658426,Y,Y
중앙시장,매일,37.47535505,126.6333376,N,Y
송현자유시장,매일,37.4757769,126.6328155,Y,N
중앙식료시장,매일,34.79403892,126.3817975,Y,Y
목포종합수산시장,매일,34.7877699,126.3898749,Y,Y
창평전통시장,5일+10일,35.23810491,127.0149083,Y,Y
영산포풍물시장,5일+10일,34.99199963,126.7072636,Y,Y
나주목사고을시장,4일+9일,35.03624663,126.7237639,Y,Y
다시5일시장,3일+8일,35.01574218,126.635656,Y,Y
풍납시장,매일,37.53803468,127.1176729,Y,Y
공산5일시장,1일+6일,34.94263855,126.6091667,Y,N
지리산나들이장터,매일,35.31147841,127.444496,Y,Y
구례상설시장,매일,35.20961971,127.465751,Y,Y
구례5일시장,3일+8일,35.21015279,127.4700811,Y,Y
중마시장,매일,34.93820196,127.6988477,Y,Y
옥곡5일시장,4일+9일,34.98850818,127.7002388,Y,Y
광영상설시장,매일,34.96144871,127.7203625,Y,Y
포방터시장,매일,37.5986742,126.9488953,Y,Y
옥과5일시장,4일+9일,35.2759017,127.1379523,Y,Y
석곡전통시장,5일+10일,35.1329487,127.2540916,Y,Y
곡성기차마을전통시장,3일+8일,35.27976851,127.2984376,Y,Y
동강전통시장,1일+6일,34.78037382,127.3349881,Y,Y
도화전통시장,5일+10일,34.50979056,127.3218794,Y,Y
녹동전통시장,3일+8일,34.52787689,127.13833,Y,Y
과역전통시장,5일+10일,34.67945419,127.3622537,Y,Y
고흥전통시장,4일+9일,34.60835226,127.2866005,Y,Y
병영시장,3일+8일,34.71380066,126.8155558,Y,Y
마량시장,3일+8일,34.45095924,126.8165817,Y,Y
강진읍시장,4일+9일,34.64016086,126.7743152,Y,Y
여수수산물특화시장,매일,34.73683093,127.7328973,Y,Y
해안로건어물상가시장,매일,34.73953431,127.7345263,Y,Y
중앙시장,매일,34.74059178,127.7325592,Y,Y
(주)여수수산시장,매일,34.73813576,127.7317623,Y,Y
대조시장,매일,37.60985344,126.9277428,Y,Y
지도 전통시장,3일+8일,35.0588198,126.2069832,Y,Y
괴목시장,4일+9일,35.10243423,127.4282445,Y,Y
순천시아랫장(순천아랫장),2일+7일,34.94514825,127.496084,Y,Y
주암시장,3일+8일,35.07598752,127.2352637,Y,Y
승주시장,1일+6일,35.01315903,127.387664,Y,Y
웃장,5일+10일,34.95864147,127.4850305,Y,Y
역전시장,매일,34.94374833,127.5033333,Y,Y
중앙시장,매일,34.95326194,127.4846047,Y,Y
조성5일시장,5일+10일,34.80647615,127.2452824,Y,Y
복내5일시장,4일+9일,34.89370035,127.1331421,Y,Y
보성매일시장,매일,34.76817918,127.0806162,Y,Y
녹차골보성향토시장(보성읍5일시장),2일+7일,34.76564839,127.0772384,Y,Y
벌교매일시장,매일,34.84300877,127.3459893,Y,Y
벌교전통시장,4일+9일,34.84493134,127.3450789,Y,Y
일로전통시장,1일+6일,34.84753364,126.4943339,Y,Y
용산용문시장,매일,37.53661783,126.9597883,Y,Y
동부시장,매일,34.80467356,126.3936914,Y,Y
항동시장,매일,34.78600878,126.3856159,Y,Y
청호시장,매일,34.81537749,126.4245916,Y,Y
신중앙시장,매일,34.81025124,126.3775235,Y,Y
자유시장,매일,34.79292001,126.4030678,Y,Y
정남진장흥토요시장,2일+7일,34.67727214,126.903159,Y,Y
장평시장,1일+6일,34.77539717,126.9778669,Y,Y
용산시장,1일+6일,34.61490641,126.9153133,Y,Y
대덕읍전통시장(대덕시장),5일+10일,34.49944415,126.8871414,Y,Y
천관산관광시장,3일+8일,34.56277107,126.9370717,Y,Y
황룡시장,4일+9일,35.2916867,126.7738864,Y,Y
사창시장,2일+7일,35.26039872,126.6630702,Y,Y
사거리시장,1일+6일,35.42767379,126.8072694,Y,Y
완도중앙시장,매일,34.31446812,126.7552341,Y,Y
완도남양시장(구 완도종합시장),5일+10일,34.31651727,126.7477207,Y,N
완도전통시장(구 완도5일시장),매일,34.31610369,126.7482543,Y,Y
간석자유시장,매일,37.46388599,126.7153438,Y,N
남창옹기종기시장,3일+8일,35.41669194,129.2827796,Y,Y
신북5일시장,3일+8일,34.88859606,126.6922282,Y,N
시종5일시장,2일+7일,34.8674024,126.6080951,Y,Y
영광터미널시장,매일,35.27553643,126.5030198,Y,Y
영광고추특화시장,1일+6일,35.27472202,126.4935505,Y,Y
수암상가시장,매일,35.52697941,129.3207648,Y,Y
도깨비시장,매일,34.76331689,127.6565415,Y,Y
진남시장,매일,34.76425827,127.6641294,Y,Y
제일시장,매일,34.76419231,127.6646531,Y,Y
쌍봉시장,매일,34.76414545,127.6649804,Y,Y
중앙선어시장,매일,34.73942888,127.7370587,Y,Y
덕양시장,매일,34.79802722,127.6314434,Y,Y
전의왕의물시장,2일+7일,36.6777398,127.2058824,Y,Y
(주)서시장,매일,34.74178725,127.7286168,Y,Y
춘천중앙시장,매일,37.87848771,127.7257515,Y,Y
제일종합시장,매일,37.87748571,127.7260713,Y,Y
북부시장,매일,36.64797204,127.4862188,Y,Y
서부시장상점가(서부시장 통합),매일,35.80524873,127.1266694,Y,Y
춘천서부시장,매일,37.88480147,127.7246493,Y,Y
춘천번개시장,매일,37.89182707,127.726303,Y,Y
와수시장,1일+6일,38.23945913,127.4394932,Y,Y
동송전통시장,매일,38.2089011,127.2192097,Y,Y
동송시장,5일+10일,38.2088079,127.218867,Y,Y
신철원시장,3일+8일,38.14471979,127.3100285,Y,Y
역곡남부시장,매일,37.48253123,126.8115462,Y,N
임계사통팔달시장,5일+10일,37.49511059,128.852576,Y,Y
정선사북시장,매일,37.22735829,128.8162148,Y,Y
고한구공탄시장(고한시장),매일,37.20132076,128.8540526,Y,Y
광양5일시장,1일+6일,34.97115451,127.5904463,Y,Y
원통시장,2일+7일,38.1225741,128.204617,Y,Y
기린전통시장,4일+9일,37.95397964,128.3168509,N,N
민속풍물시장,2일+7일,37.34898786,127.9541184,Y,Y
북원상가시장,매일,37.38439475,127.9488481,Y,Y
도래미시장,매일,37.35170226,127.9496495,Y,Y
미로예술원주중앙시장(원주중앙시장),매일,37.35000952,127.9491994,Y,Y
조공시장,매일,37.47917913,126.805766,N,N
문막시장,3일+8일,37.30602942,127.8153678,Y,Y
원주남부시장,매일,37.34301479,127.9544052,Y,Y
서부공설시장,매일,37.18292558,128.4663073,Y,Y
영월종합상가시장,매일,,,Y,Y
대야전통시장,1일+6일,35.9448597,126.816085,Y,Y
역전종합시장,매일,35.98046443,126.7209989,Y,Y
군산주공시장,매일,35.96576624,126.6954417,Y,Y
흥덕전통시장,4일+9일,35.52058772,126.7002195,Y,Y
해리전통시장,4일+9일,35.45865884,126.5422037,Y,Y
상하전통시장,1일+6일,35.44409017,126.4917538,Y,Y
무장전통시장,5일+10일,35.41442783,126.5605985,Y,Y
대산전통시장,2일+7일,35.34010335,126.598984,Y,Y
고창전통시장,3일+8일,35.43267051,126.6987727,Y,Y
화순고인돌전통시장,3일+8일,35.05909434,126.9833988,Y,Y
이양전통시장,4일+9일,34.88259402,126.9868735,Y,Y
사평전통시장,5일+10일,35.00537383,127.0975835,Y,N
동복전통시장,2일+7일,35.07163148,127.1257557,N,N
능주전통시장,5일+10일,34.99091732,126.959364,Y,Y
남리5일시장,3일+8일,34.57532321,126.4324845,Y,Y
화원5일시장,5일+10일,34.66949685,126.3282268,Y,Y
해남읍5일시장,1일+6일,34.56878428,126.5971547,Y,Y
송지산정5일시장,2일+7일,34.36966913,126.5191941,Y,Y
우수영5일시장,4일+9일,34.5969017,126.311316,Y,Y
북평면남창5일시장,2일+7일,34.40453441,126.6267107,Y,Y
좌일5일시장,3일+8일,34.46385571,126.6725613,Y,Y
해보시장,3일+8일,35.18104709,126.6025443,Y,Y
인천모래내전통시장,매일,37.45420055,126.7214949,Y,Y
월야시장,5일+10일,35.17926742,126.626782,Y,Y
진도상설전통시장,매일,34.48135668,126.2649029,Y,Y
진도읍조금시장,2일+7일,34.48155399,126.25734,Y,Y
회진시장,매일,34.4820345,126.9403546,Y,N
함열시장,2일+7일,,,Y,Y
여산시장,1일+6일,36.05890563,127.083244,Y,Y
익산장(익산북부장),4일+9일,35.9512294,126.9567719,Y,Y
가좌시장,매일,37.4933969,126.684576,Y,N
익산금마시장,2일+7일,35.99217754,127.0534309,Y,Y
삼례시장,3일+8일,35.91068557,127.0737715,Y,Y
부평문화의거리,매일,37.49408359,126.7250106,Y,Y
고산미소시장,매일,35.97444053,127.2048167,Y,Y
순창시장,1일+6일,35.37187647,127.1450592,Y,Y
동계시장,2일+7일,35.43954095,127.2397976,Y,Y
줄포시장,1일+6일,35.58760184,126.6768543,Y,Y
부안상설시장,매일,35.72709542,126.7329492,Y,Y
안성시장(덕유산장터),5일+10일,35.86627446,127.6535366,Y,Y
설천시장(삼도봉장터),2일+7일,36.0099056,127.7880133,Y,Y
무풍시장(대덕산장터),3일+8일,35.96945032,127.8487964,Y,Y
진흥종합시장,매일,37.49695039,126.7257012,Y,Y
용남시장,매일,35.40710447,127.3767644,Y,Y
남원인월시장,3일+8일,35.46112561,127.6021352,Y,Y
남원공설시장,4일+9일,35.40461965,127.3758611,Y,Y
금만시장,매일,35.80014264,126.8864263,Y,Y
김제전통시장,2일+7일,35.80162714,126.8837248,Y,Y
역전시장,매일,35.79317122,126.9016024,Y,Y
원평공설시장(김제원평시장),4일+9일,35.71406176,126.9947286,Y,Y
군산수산물종합센터,매일,35.99398004,126.7047377,Y,Y
군산신영시장,매일,35.98560841,126.7201159,Y,Y
장승백이전통시장,매일,37.44656416,126.7352271,Y,Y
명산시장,매일,35.98251006,126.7095374,Y,Y
고성오일시장,4일+9일,33.4518552,126.9128143,Y,Y
서귀포매일올레시장,매일,33.25014646,126.5632316,Y,Y
서귀포향토오일시장,5일+10일,33.26778279,126.5737587,Y,Y
모슬포중앙시장,매일,33.22207249,126.2545119,Y,Y
대정오일시장,1일+6일,33.22061006,126.2482168,Y,Y
진안고원시장,4일+9일,35.79264222,127.4296267,Y,Y
정읍연지시장,매일,35.573166,126.8472538,Y,Y
신태인시장,3일+8일,35.68729453,126.8865644,Y,Y
굴비골영광시장(구 영광매일시장),매일,35.27513263,126.5123207,Y,Y
무안전통시장,4일+9일,34.99348251,126.4724295,Y,Y
남평5일시장,1일+6일,35.04581389,126.8415451,Y,Y
연수송도역전시장,매일,37.42645827,126.657697,Y,N
거북시장,매일,37.50338084,126.6749097,Y,Y
신거북시장,매일,37.50326747,126.6729889,Y,Y
장수시장,5일+10일,35.64910345,127.5174697,Y,Y
장계시장,3일+8일,35.72943479,127.5822739,Y,Y
산서시장,2일+7일,35.58450071,127.3958978,Y,Y
임실시장,1일+6일,35.61445375,127.2827133,Y,Y
관촌시장,5일+10일,35.67877664,127.2676851,Y,Y
강진시장,2일+7일,35.5290276,127.161009,Y,Y
황등시장,5일+10일,35.99943493,126.9523869,Y,Y
서동시장,매일,35.94271026,126.950548,Y,Y
중앙시장,매일,35.94206103,126.9497282,Y,Y
매일시장,매일,35.94039371,126.9496739,Y,Y
익산남부시장,매일,35.93194154,126.9533804,Y,Y
익산 구시장,매일,35.93152656,126.952339,Y,Y
금산인삼전통시장,2일+7일,36.10045233,127.4921846,Y,Y
중부프라자,매일,36.10453057,127.4910218,Y,Y
금산국제인삼시장(금산인삼국제시장),매일,36.10191794,127.4983403,Y,Y
금산금빛시장(금산시장),2일+7일,36.09951247,127.490976,Y,Y
금산수삼센타,2일+7일,36.10015574,127.4964497,Y,Y
산성시장활성화구역,매일,36.4548805,127.1256762,Y,Y
유구시장,3일+8일,36.55270354,126.9518599,Y,Y
공주산성시장,1일+6일,36.45881276,127.1226147,Y,Y
화북종합시장,매일,33.52264949,126.5658711,Y,N
한림매일시장,매일,33.41565321,126.264774,Y,Y
한림민속오일시장(한림오일시장),4일+9일,33.41983074,126.2745011,Y,Y
함덕오일시장,5일+10일,33.54025266,126.6679607,Y,Y
신산시장,매일,33.50606424,126.5419541,Y,Y
제주칠성로상점가(칠성로상점가),매일,33.51402881,126.5261117,Y,Y
동문시장(주),매일,33.51279665,126.5283141,Y,N
제주시동문공설시장,매일,33.51208951,126.5282426,Y,Y
중앙로상점가,매일,33.51010018,126.523959,Y,Y
보성시장,매일,33.50330767,126.5279393,Y,Y
제주시동문재래시장,매일,33.5115942,126.5260281,Y,Y
제주동문수산시장,매일,33.51206774,126.5249062,Y,Y
영암5일시장,5일+10일,34.80123497,126.7005743,Y,Y
제주시민속오일시장,2일+7일,33.49724208,126.474894,Y,Y
도남시장,매일,33.49640447,126.528941,Y,Y
세화오일시장,5일+10일,33.52618615,126.857297,Y,Y
표선오일시장,2일+7일,33.32271206,126.8303863,Y,Y
중문오일시장,3일+8일,33.25058008,126.4239435,Y,Y
고덕시장,3일+8일,36.74392963,126.7052158,Y,Y
온양온천시장(온양전통시장),4일+9일,36.78329506,127.0042346,Y,Y
둔포전통시장(둔포시장),2일+7일,36.92946679,127.0360407,Y,Y
장항전통시장,3일+8일,36.01556607,126.6945736,Y,Y
해미읍성전통시장,매일,36.71113407,126.5455675,Y,Y
서산동부전통시장(동부시장),매일,36.78181899,126.4564432,Y,Y
대산종합시장,매일,36.93800832,126.4339406,Y,Y
홍산시장,2일+7일,36.21394105,126.7576057,Y,Y
부여 새시장,5일+10일,36.28098513,126.9096533,N,N
부여중앙시장,매일,36.28192426,126.91219,Y,Y
부여시장,5일+10일,36.28149721,126.9075601,Y,Y
웅천시장,2일+7일,36.23298807,126.6012701,Y,Y
대천항수산시장,매일,36.32660911,126.5061075,Y,Y
현대시장(현대상가시장),매일,36.34891076,126.5969368,Y,N
보령한내시장,3일+8일,36.34962793,126.595819,Y,Y
보령중앙시장,3일+8일,36.35085519,126.5941055,Y,Y
동부시장,매일,36.34936157,126.5970013,Y,Y
합덕전통시장,1일+6일,36.80617206,126.7719672,Y,Y
독천5일시장,4일+9일,34.72459224,126.5671189,Y,Y
신평시장,5일+10일,36.88353946,126.7759775,N,N
연산전통시장,5일+10일,36.21627075,127.2164887,Y,Y
화지중앙시장,매일,36.20691048,127.0852797,Y,Y
강경젓갈시장,매일,36.15755436,127.0098017,Y,N
강경대흥시장,4일+9일,36.15597686,127.0136799,Y,Y
마전시장,4일+9일,36.1906104,127.4669775,Y,N
금산약초시장,매일,36.1003757,127.4954712,Y,Y
금산인삼쇼핑센타,매일,36.1015148,127.4989542,Y,Y
반송골목시장,매일,35.22428809,129.1503299,Y,Y
반송큰시장(반송2동시장),매일,35.23111721,129.1562096,Y,Y
부산데파트,매일,35.0983104,129.0367073,Y,Y
영주시장,매일,35.1116817,129.0373691,Y,Y
새영주시장,매일,35.11270202,129.0363088,Y,Y
만물의거리시장,매일,35.10148415,129.0285512,Y,Y
신창상가,매일,35.10117719,129.0302005,Y,Y
아리랑거리,매일,35.10045891,129.0289644,Y,Y
국제시장,매일,35.10153726,129.02807,Y,Y
월드밸리,매일,35.10280033,129.0263688,Y,Y
부평깡통시장,매일,35.10128805,129.0257282,Y,Y
창선상가,매일,35.10193912,129.027751,Y,Y
보수종합시장,매일,35.10421143,129.0218183,Y,Y
신천지시장,매일,35.09704464,129.0278162,Y,Y
신동아수산물종합시장,매일,35.09671506,129.0286633,Y,Y
부산자갈밭시장,매일,35.09662907,129.030569,Y,Y
시화유통상가,매일,37.33533243,126.7284453,Y,Y
남포동건어물도매시장,매일,35.09683884,129.034719,Y,Y
청학시장,매일,35.09660365,129.0603377,Y,Y
남항시장,매일,35.08890779,129.0422624,Y,Y
영도봉래시장,매일,35.09272066,129.0432785,Y,Y
연일시장,매일,35.18557048,129.0848866,Y,N
연미새시장,매일,35.25220927,129.2088393,Y,N
영남종합시장,매일,35.18077628,129.077026,Y,Y
거제시장,매일,35.18193157,129.0727929,Y,Y
수영팔도시장,매일,35.16877627,129.116898,Y,Y
민락씨랜드시장,매일,35.15697591,129.1263963,Y,Y
민락골목시장,매일,35.15711176,129.1244534,Y,Y
방신전통시장,매일,37.5715067,126.812647,Y,Y
등마루시장,매일,37.55666129,126.8602626,Y,Y
장미원골목시장,매일,37.64512114,127.015478,Y,N
우이시장,매일,37.64603946,127.020022,Y,N
수유중앙시장,매일,37.64033603,127.0211761,Y,Y
수유프라자,매일,37.63169515,127.0234508,Y,Y
수유전통시장(수유골목시장),매일,37.63073125,127.0226688,Y,Y
백년시장(강북종합시장과별개의시장) 구 강북종합전통시장,매일,37.64155145,127.0257426,N,N
수유재래시장,매일,37.63153319,127.0223292,Y,Y
수유시장,매일,37.63073125,127.0226688,Y,Y
고분다리전통시장,매일,37.54248857,127.1319259,Y,Y
광탄시장,3일+8일,37.78145915,126.8484774,Y,Y
성내전통시장,매일,37.53416778,127.1278835,N,Y
양평물맑은시장,3일+8일,37.49093506,127.4925686,Y,Y
명일전통시장,매일,37.54952811,127.1449523,Y,Y
길동복조리시장,매일,37.53907794,127.1438005,N,Y
청담삼익시장,매일,37.52244687,127.0576251,Y,Y
신사상가,매일,37.53228744,127.028409,Y,N
강남시장,매일,37.51876501,127.020678,Y,Y
박달시장,매일,37.40464613,126.9096092,Y,Y
좌동재래시장,매일,35.17302767,129.1744727,Y,Y
재송한마음시장,매일,35.18607852,129.1246024,Y,Y
재송시장,매일,35.18658147,129.1236715,Y,Y
신안코아전통시장,매일,37.29374218,126.8659834,Y,Y
반여3동골목시장,매일,35.19994225,129.1320557,Y,N
반여2동상가시장,매일,35.19602122,129.129044,Y,N
반여시장,매일,35.19770132,129.1334243,Y,N
중곡제일시장(이오상사),매일,37.56391495,127.0813016,Y,Y
신성종합시장(건물형),매일,37.55808066,127.088052,Y,N
광성시장,매일,37.56358171,127.0811202,Y,Y
능동로골목시장,매일,37.53517325,127.0666976,Y,N
조양시장(건물형),매일,37.53899664,127.0674931,Y,N
노룬산시장(건물형),매일,37.5364717,127.0648885,Y,Y
사강시장,2일+7일,37.21330187,126.7360034,Y,Y
신림중앙시장,매일,37.48314387,126.9114142,Y,Y
원당종합시장,매일,37.47441435,126.9659151,Y,N
신원시장,매일,37.48206454,126.9273799,Y,Y
신림현대종합상가,매일,37.47462597,126.9338049,Y,Y
우림시장,매일,37.47042842,126.9210041,Y,Y
덕풍전통시장,4일+9일,37.54154098,127.202916,Y,Y
관악신사시장,매일,37.48678805,126.9170747,Y,Y
관악종합시장,매일,37.4815694,126.9280588,Y,N
적성전통시장,5일+10일,37.95460991,126.9186679,Y,Y
봉천중앙시장,매일,37.48419585,126.954344,Y,Y
인헌시장,매일,37.47486452,126.9647731,Y,Y
봉일시장,매일,37.48590008,126.9383891,Y,Y
문산자유시장,4일+9일,37.85673243,126.7839395,Y,Y
화곡중앙시장,매일,37.53488481,126.8395077,N,Y
신월중앙시장,매일,37.52796836,126.8419096,Y,Y
남부골목시장,매일,37.53318098,126.8600236,Y,Y
남부화곡시장,매일,37.53307159,126.858949,Y,Y
까치산시장,매일,37.53152613,126.8478644,Y,Y
대원종합시장,매일,37.54448531,126.8364885,Y,Y
구미새마을중앙시장,1일+6일,36.13085045,128.3297934,Y,Y
답십리시장,매일,37.57315455,127.0586943,Y,N
창동골목시장,매일,37.63840333,127.0391448,Y,N
창동신창시장,매일,37.639431,127.0374459,Y,Y
백운시장,매일,37.65549577,127.0148796,N,N
쌍문시장,매일,37.6483701,127.0329744,N,N
방학동도깨비시장,매일,37.6659383,127.0362011,Y,Y
신도봉시장,매일,37.67001862,127.0397055,Y,Y
신평전통시장,매일,36.12315363,128.361175,Y,Y
경산공설시장,5일+10일,35.82052133,128.735749,Y,Y
대명여울빛거리시장,매일,37.45277209,126.9016513,Y,Y
장유전통시장(장유중앙시장),3일+8일,35.20056341,128.8148125,Y,Y
비단길현대시장,매일,37.45772129,126.9048774,Y,Y
별빛남문시장,매일,37.47374661,126.9004255,Y,Y
구로시장,매일,37.48963599,126.8856144,Y,N
남구로시장,매일,37.49020442,126.8864389,Y,Y
고척골목시장상점가,매일,37.50336999,126.862737,Y,N
고척근린시장,매일,37.50195711,126.8511138,Y,Y
가리봉시장,매일,37.48167439,126.8890749,Y,N
신성골목시장,매일,37.55776458,127.0890249,N,N
화양제일골목시장,매일,37.54348798,127.0692963,Y,Y
중곡제일전통시장(중곡제일시장),매일,37.56387861,127.081743,Y,Y
자양전통시장,매일,37.53438165,127.0791991,Y,Y
영동교골목시장,매일,37.53751723,127.0642105,Y,Y
노룬산골목시장,매일,37.53636333,127.065341,Y,Y
한아름시장,매일,37.54396524,127.0697607,Y,Y
연희사러가,매일,37.56714756,126.9296631,Y,Y
안동구시장,매일,36.56583641,128.7278869,Y,Y
아현시장,매일,37.55640684,126.9550922,Y,N
마포농수산물시장,매일,37.56519673,126.8984816,Y,Y
형곡중앙시장,매일,36.10639921,128.336566,Y,Y
망원동월드컵시장,매일,37.55873145,126.9050809,Y,N
마포시장,매일,37.54514325,126.9538313,Y,N
공덕시장,매일,37.54478749,126.9532661,Y,N
성대전통시장,매일,37.4992128,126.9308577,Y,Y
성대시장,매일,37.499747,126.9319148,Y,Y
상도전통시장,매일,37.49874579,126.9521073,Y,Y
남성역골목시장,매일,37.48297561,126.9723106,N,Y
구미산업유통단지,매일,36.10987904,128.4026465,Y,Y
회기시장,매일,37.59096898,127.0549831,Y,Y
청량리전통시장,매일,37.58061231,127.043609,N,N
청량리농수산물시장,매일,37.58091962,127.0408808,Y,Y
청량리청과물시장,매일,37.58021633,127.0424243,Y,Y
청량리종합시장,매일,37.58015373,127.0410276,Y,Y
청량종합도매시장(깡통시장),매일,37.58194677,127.0408474,Y,Y
동서시장,매일,37.57972118,127.0412198,Y,Y
경동시장,매일,37.57903713,127.0391477,Y,Y
경동광성상가,매일,37.5801094,127.0388992,Y,N
서울약령시장,매일,37.58060041,127.0375866,Y,Y
전농로터리시장,매일,37.57814687,127.057034,Y,N
전곡시장,매일,37.57789747,127.0684698,Y,N
종합제일시장,매일,36.13031135,128.329651,Y,Y
답십리건축자재시장,매일,37.56746274,127.053483,N,N
신곡종합시장,매일,37.5183654,126.8431968,Y,N
우성상가시장,매일,37.52266806,126.8335949,Y,Y
목동깨비시장 (목3동시장),매일,37.54818867,126.8652236,Y,Y
목2동시장,매일,37.54602681,126.8738616,Y,N
목사랑시장 (목4동시장),매일,37.53762108,126.8662157,Y,Y
영주소백쇼핑몰,매일,36.8234917,128.6261751,Y,Y
새마을시장,매일,37.50876138,127.0859863,Y,Y
석촌시장,매일,37.5001761,127.1065307,Y,Y
방이시장,매일,37.50995926,127.1178663,Y,Y
마천중앙시장,매일,37.49720945,127.1501548,Y,Y
마천시장,매일,37.49837418,127.1508638,Y,N
정릉시장,매일,37.60946076,127.0090604,Y,Y
정릉아리랑시장,매일,37.60281126,127.0112339,N,N
장위전통시장,매일,37.61128809,127.051034,Y,Y
돌곶이시장(구 석관황금시장),매일,37.60977806,127.062234,Y,N
영주중앙시장,매일,36.82573412,128.6209774,Y,Y
길음시장,매일,37.60278279,127.0215958,Y,Y
용답상가시장,매일,37.56417453,127.0525299,Y,Y
뚝도시장,매일,37.53780127,127.0548196,Y,Y
마장축산물시장,매일,37.57068419,127.0412827,Y,Y
금남시장,매일,37.54862374,127.02304,Y,Y
양재시장,매일,37.48430625,127.0379675,Y,N
남부종합시장,매일,37.49499219,126.9848583,Y,Y
인왕시장,매일,37.59139941,126.9439326,Y,Y
풍기인삼시장,매일,36.87302772,128.5236126,Y,Y
유진상가,매일,37.59159869,126.9429557,Y,Y
풍산공설시장,3일+8일,36.57720568,128.5765756,Y,Y
광장시장,매일,37.57011251,126.9997072,Y,Y
신설종합시장,매일,37.57266283,127.0203419,Y,N
대림골목시장,매일,37.58793463,126.9175061,Y,N
증산종합시장,매일,37.58145616,126.9050711,Y,Y
신응암시장,매일,37.59391806,126.9186943,Y,Y
대림시장,5일+10일,37.58679054,126.9177451,Y,Y
청도공설시장,4일+9일,35.64393806,128.7460405,Y,Y
영주종합시장,매일,36.81360395,128.6221385,Y,Y
제일시장,매일,37.61062032,126.9294636,Y,N
신영주번개시장,매일,,,Y,Y
후암시장,매일,37.55038071,126.9766339,Y,Y
이태원시장,매일,37.53382214,126.9900549,Y,N
이촌종합시장,매일,37.52073732,126.9747853,Y,Y
신흥시장,매일,37.54531838,126.9850858,Y,N
만리시장,매일,37.55133241,126.963696,Y,N
보광시장,매일,37.52719119,127.0002941,Y,Y
영신상가,매일,37.51991925,126.9066537,Y,N
삼구시장,매일,37.52014379,126.9057597,Y,N
동남상가,매일,37.52059746,126.9056573,Y,N
영일시장,매일,37.51613921,126.9007199,Y,Y
대림중앙시장,매일,37.49190098,126.8995307,Y,N
영등포유통상가,매일,37.52241744,126.8939303,Y,Y
오목교중앙시장,매일,37.52026919,126.8757375,N,N
신정제일시장,매일,37.52084193,126.8536894,Y,N
경창시장,매일,37.52493227,126.8421197,Y,Y
신영시장,매일,37.53301495,126.836027,Y,Y
신중앙시장,매일,37.56738265,127.0197632,Y,N
서울중앙시장,매일,37.56738265,127.0197632,Y,N
방산종합시장,매일,37.56872723,127.0008037,Y,Y
평화시장,매일,37.56942974,127.0080481,Y,Y
통일상가,매일,37.56915955,127.006203,Y,N
동화상가,매일,37.5686099,127.0069161,Y,Y
중부시장,매일,37.56506017,127.0019016,Y,N
신중부시장,매일,37.56554672,126.9994114,Y,Y
Team204,매일,37.56771738,127.0131982,Y,Y
테크노상가,매일,37.56884362,127.0132437,Y,Y
청평화시장,매일,37.5694651,127.0149417,Y,Y
제일평화시장,매일,37.56851044,127.0114021,Y,Y
벨포스트,매일,37.56814098,127.0119871,Y,Y
신평화패션타운,매일,37.56945652,127.0110704,Y,N
동평화시장,매일,37.56933911,127.0137758,Y,Y
남평화시장,매일,37.56917723,127.0108327,Y,Y
광희패션몰,매일,37.56867257,127.0119193,Y,Y
청계상가,매일,37.56797977,126.9953591,Y,Y
대림상가,매일,37.5671459,126.9954271,Y,Y
삼익패션타운,매일,37.56043619,126.9789484,Y,Y
숭례문수입상가,매일,37.5593725,126.9762097,Y,Y
남대문시장,매일,37.55918357,126.9776585,Y,N
통인시장,매일,37.5807607,126.9699423,Y,N
동문시장㈜,매일,37.57051095,127.011128,Y,N
동대문종합시장 신관(동대문쇼핑타운),매일,37.57081727,127.0080936,Y,Y
동대문종합시장D동상가,매일,37.57070019,127.0073238,Y,N
동대문종합시장,매일,37.57070019,127.0073238,Y,Y
한일상가,매일,37.57013275,127.0030223,Y,Y
종로신진시장,매일,37.57023179,127.0049467,Y,N
수암종합시장,매일,35.52750443,129.3210053,Y,N
울산번개시장,매일,35.52023662,129.3367723,Y,Y
야음상가시장,매일,35.52361147,129.3318662,Y,Y
봉선시장,매일,35.12904439,126.9100112,Y,Y
신정평화시장,매일,35.5383388,129.3035418,Y,Y
월곡시장,매일,35.17129717,126.8096437,Y,Y
(주)신정시장,매일,35.54233666,129.310282,Y,N
울산산업공구월드,매일,35.53578321,129.342636,Y,Y
세종전통시장,4일+9일,36.59978855,127.3006053,Y,Y
1913송정역시장(송정역전매일시장),매일,35.13555958,126.7915346,Y,Y
부강전통시장,5일+10일,36.52850118,127.3688876,Y,Y
세종대평시장,5일+10일,36.46727471,127.2820631,Y,Y
장미제일시장,매일,37.60518362,127.0765334,Y,N
태능엔터피아,매일,37.59926352,127.0775053,Y,Y
신아타운,매일,37.60645884,127.0947115,Y,Y
동성타워프라자,매일,37.60804247,127.0972055,Y,Y
중랑교종합상가,매일,37.59294778,127.077121,Y,Y
사가정시장,매일,37.58108117,127.0893792,N,N
면목골목시장,매일,37.57749074,127.0844409,Y,Y
면목시장,매일,37.57954367,127.0862998,Y,Y
동원시장,매일,37.58983934,127.0898896,Y,N
동원전통종합시장,매일,37.58982861,127.0921089,Y,Y
중랑동부시장(동부골목시장),매일,37.59150529,127.0784896,Y,Y
우림골목시장,매일,37.59677029,127.0982661,Y,Y
아트프라자,매일,37.56918604,127.0128249,Y,N
자유상가,매일,37.56095891,126.9797744,Y,N
황학시장,매일,37.56738265,127.0197632,N,N
우정시장,매일,35.5546219,129.3100695,Y,N
옥골시장,매일,35.55522127,129.3229683,Y,N
중앙전통시장,매일,35.55518019,129.3222945,Y,Y
웰컴시티,매일,35.5532821,129.319792,Y,Y
성남프라자,매일,35.55451452,129.3175561,Y,Y
서동시장,매일,35.58134597,129.3469851,Y,N
반구시장,매일,35.55838456,129.3434151,Y,Y
신울산종합시장,매일,35.56123791,129.3373619,Y,Y
선우시장,매일,35.57119003,129.3421705,Y,Y
병영시장,매일,35.57055602,129.3462842,Y,Y
덕하시장(덕하공설시장),2일+7일,35.49170116,129.3059222,Y,Y
곡천공설시장,1일+6일,35.46589516,129.2099662,Y,Y
명덕시장,매일,35.84479169,128.5882688,Y,N
덕신1차시장,5일+10일,35.43524428,129.3093532,Y,N
덕신2차시장,5일+10일,35.42934746,129.3100214,Y,Y
언양알프스시장,2일+7일,35.5637023,129.1252974,Y,N
언양종합상가시장,매일,35.56370129,129.1256944,Y,Y
언양공설시장,2일+7일,35.56280807,129.125824,Y,Y
봉계공설시장,4일+9일,35.71338448,129.1991813,Y,Y
화봉시장(화봉종합시장),매일,35.5888166,129.3658234,Y,Y
호계공설시장,1일+6일,35.62361423,129.3557466,Y,Y
월봉시장,매일,35.4949801,129.4248453,Y,N
대송시장,매일,35.49947701,129.4212232,Y,Y
전하시장 상점가,매일,35.51378343,129.4307337,Y,Y
동울산종합시장,매일,35.50883546,129.4254273,Y,Y
남목마성시장,매일,35.54272923,129.427385,Y,Y
자유시장,매일,37.35023035,127.9486266,Y,Y
양동경열로시장,매일,35.15367146,126.900842,Y,Y
양동산업용품시장,매일,35.15117026,126.9066176,Y,Y
양동수산전통시장,매일,35.15323947,126.9016656,Y,Y
양동복개상가,매일,35.15359895,126.903926,Y,Y
북평민속시장,3일+8일,37.48246871,129.1260256,Y,Y
양동닭전길시장,매일,35.1528177,126.9039928,Y,Y
광주양동시장,매일,35.15390747,126.9025538,Y,Y
중흥시장,매일,35.1616112,126.9108534,N,N
동부시장,매일,35.1738826,126.9163398,Y,Y
운암시장,매일,35.1733763,126.8820026,Y,Y
말바우시장,2일+4일+7일+9일,35.1729756,126.9213684,Y,Y
두암시장,매일,35.17157442,126.9293831,Y,Y
남광주시장,매일,35.13929961,126.9208082,Y,Y
남광주해뜨는시장,매일,35.13896721,126.9212584,Y,Y
산수시장,매일,35.15348435,126.929739,Y,N
대인시장,매일,35.15409833,126.917243,Y,Y
밤고개자연시장(구 내덕자연시장),매일,36.66241616,127.4886473,Y,Y
무등시장,매일,35.13592608,126.8945422,Y,Y
덕산면전통시장,4일+9일,36.90858319,128.1679776,Y,Y
우산매일시장,매일,35.16218922,126.8035258,Y,Y
샘고을시장,매일,35.56288287,126.8551048,Y,Y
송정매일시장,매일,35.13745243,126.7968406,Y,Y
송정5일시장,3일+8일,35.13708297,126.7969059,Y,Y
비아5일시장,1일+6일,35.22135885,126.8252669,Y,Y
죽도농산물시장,매일,36.03457995,129.3679641,Y,Y
청하시장,1일+6일,36.19707872,129.33967,Y,Y
민락회타운시장,매일,35.15555236,129.1238191,Y,Y
두류종합시장,매일,35.84548989,128.5451496,Y,Y
상원시장,매일,35.80903113,128.5512909,Y,Y
대동시장,매일,35.81166479,128.5377894,Y,Y
상인영남화성상가,매일,35.81651479,128.5425742,Y,Y
보성은하상가,매일,35.82357763,128.5342978,Y,Y
춘천동부시장,매일,37.87723546,127.7341739,Y,Y
달서송림시장,매일,35.83685925,128.5470628,Y,Y
대구예전우시장,매일,35.85853653,128.5620298,Y,N
신내당시장,매일,35.85461519,128.5538543,Y,Y
서대구시장,매일,35.86059821,128.5706868,Y,Y
도원시장,매일,35.80756953,128.5367189,Y,Y
대곡시장,매일,35.80758537,128.535454,Y,Y
월성청구시장,매일,35.82752932,128.5311131,Y,Y
서남신시장,매일,35.85400583,128.5459007,Y,Y
서남시장,매일,35.85436588,128.5451779,Y,Y
대명신시장,매일,35.85774192,128.5766374,Y,Y
봉덕시장,매일,35.84571394,128.6036931,Y,Y
춘천풍물시장,2일+7일,37.86622785,127.7195853,Y,Y
영선신시장,매일,35.85230042,128.5929228,Y,Y
성당시장,매일,35.85017533,128.5729677,Y,Y
인제시장,4일+9일,38.06709944,128.1710826,Y,Y
대명시장,매일,35.85840896,128.5771586,Y,Y
남부시장,매일,35.84140021,128.5769336,Y,N
광덕시장,매일,35.83719185,128.582417,Y,N
관문시장,매일,35.83553597,128.5590519,Y,Y
관문상가시장,매일,35.836547,128.5572825,Y,Y
대명중앙시장,매일,35.83680695,128.5677124,Y,Y
복현전통신시장,매일,35.89327545,128.619193,N,N
동대구신시장,매일,35.88219175,128.6097877,Y,Y
동대구시장,매일,35.88107854,128.6090909,Y,Y
팔달신시장,매일,35.89068549,128.5659616,Y,Y
팔달시장,매일,35.88904235,128.5708569,N,N
구암시장,매일,35.926612,128.5541609,N,N
관음시장,매일,35.94492263,128.5472275,Y,N
동구시장,매일,35.87405704,128.6395727,Y,N
공항시장,매일,35.8963962,128.6382503,Y,Y
송라시장,매일,35.87448493,128.6153117,Y,Y
동대구역전시장,매일,35.87430058,128.6205438,Y,N
평화시장,매일,35.88259424,128.6193963,Y,Y
동서시장,매일,35.88820415,128.6333749,Y,N
목련시장,매일,35.86998779,128.7046656,Y,N
반야월종합시장,1일+6일,35.87240724,128.7024478,Y,Y
불로전통시장,5일+10일,35.87460697,128.688976,Y,Y
방촌시장,매일,35.88130271,128.6644257,Y,Y
화원시장,1일+6일,35.8012506,128.4997345,Y,Y
현풍백년도깨비시장,5일+10일,35.69475898,128.4422247,Y,Y
논공중앙시장,매일,35.72838389,128.4465885,Y,Y
월배신시장,매일,35.813256,128.5278755,N,N
월배시장,매일,35.81407718,128.5273978,Y,Y
성서보성화성상가,매일,35.85566206,128.5041129,Y,Y
용산종합큰시장,매일,35.85805075,128.5311686,Y,Y
성서용산시장,매일,35.85513834,128.5213714,N,Y
성서와룡시장,매일,35.85582107,128.4993227,Y,Y
월촌역시장,매일,35.8227509,128.548172,Y,Y
두류신시장,매일,35.84527773,128.5462301,N,N
수성시장,매일,35.85565541,128.6170064,Y,Y
동성시장,매일,35.85591488,128.6171376,Y,N
수성현대시장,매일,35.84946852,128.60939,Y,N
청구시장,매일,35.86482085,128.6440771,Y,Y
중평시장,매일,35.8653642,128.5539271,Y,N
신평리시장,매일,35.86809726,128.5606785,Y,Y
대평리시장,매일,35.87800549,128.5589352,Y,Y
서구시장,매일,35.87393821,128.5556896,Y,N
원대신시장,매일,35.88552266,128.5748006,Y,Y
원고개시장,매일,35.88028056,128.5682981,Y,Y
서부시장,매일,35.87331075,128.5720521,Y,Y
새길시장,매일,35.86504457,128.5715677,Y,N
중앙시장,매일,35.9216581,128.5449019,Y,Y
칠성전자주방시장,매일,35.88023823,128.6015542,Y,Y
칠성상가시장,매일,35.87561087,128.6053131,Y,Y
칠성본시장,매일,35.87551455,128.6043822,N,Y
칠성진시장,매일,35.87571704,128.6040652,Y,Y
칠성시장,매일,35.8763116,128.605428,Y,Y
삼성시장,매일,35.87781555,128.6034764,Y,N
대구청과시장,매일,35.87703471,128.6039146,Y,Y
대구능금시장,매일,35.87715081,128.6019682,Y,Y
봉평전통시장(봉평시장),2일+7일,37.61558646,128.3772728,Y,Y
서변중앙시장,2일+7일,35.92100516,128.596183,Y,N
전자상가,매일,35.90545132,128.6049864,Y,Y
전자관,매일,35.90720316,128.6070266,Y,Y
전기재료관,매일,35.90506337,128.6077144,Y,Y
섬유제품관,매일,35.90628079,128.6096663,Y,Y
산업용재관,매일,35.90497291,128.6063945,Y,Y
산격종합시장,매일,35.8986391,128.6103422,Y,N
전기조명관,매일,35.90569574,128.6082699,Y,Y
경안시장,3일+8일,37.40885235,127.2570231,Y,Y
신중앙시장,매일,36.32729269,127.4336344,Y,Y
중앙종합시장,매일,36.32858655,127.4322049,Y,Y
가평잣고을시장,5일+10일,37.82972123,127.5148873,Y,Y
신도시장,매일,36.3495206,127.447114,Y,Y
중리시장,매일,36.3655916,127.4263925,Y,Y
송촌시장,매일,36.36463844,127.439864,Y,Y
신탄진시장,3일+8일,36.44915618,127.4265148,Y,Y
법동시장,매일,36.36622183,127.4315773,Y,Y
중앙시장,매일,35.87237538,128.5931143,Y,N
번개시장,매일,35.87508428,128.5981288,Y,Y
약령시장,매일,35.86812814,128.5899293,Y,N
서문시장4지구종합대체상가(베네시움),매일,35.86672736,128.5827273,Y,Y
서문시장2지구종합상가,매일,35.86881497,128.579536,Y,Y
명품프라자상가,매일,35.86990532,128.5809084,Y,Y
서문시장 제1지구1층(직물시장),매일,35.86938777,128.5798352,Y,Y
서문시장 제1지구2층(포목시장),매일,35.86938777,128.5798352,Y,Y
서문시장 아진상가,매일,35.86995064,128.5815736,Y,Y
동산상가,매일,35.86895745,128.5817199,Y,Y
서문시장5지구,매일,35.86808104,128.5784697,Y,Y
서문시장건해산물상가,매일,35.8681669,128.5794789,Y,Y
방천시장,매일,35.86113952,128.6072142,Y,Y
교동시장,매일,35.8732548,128.5967856,Y,Y
염매시장,매일,35.86686144,128.5916753,Y,N
황금시장,매일,35.84839977,128.6199562,Y,Y
지산목련시장(지산종합시장),매일,35.82079684,128.631863,Y,Y
신매시장,매일,35.83727706,128.70972,Y,N
태백시장,매일,35.85519908,128.6167578,Y,Y
원미종합시장,매일,37.49368572,126.79018,Y,N
장전상가시장,매일,35.23085024,129.0861108,Y,N
장성시장,매일,35.23744721,129.0855549,Y,N
서동향토시장,매일,35.21593515,129.1033531,Y,N
서동전통골목시장,매일,35.21527847,129.1022491,Y,N
서동시장,매일,35.21641237,129.1023592,Y,Y
부곡상가시장,매일,35.22548538,129.0915165,Y,N
금사제일상가시장,매일,35.22045187,129.1125513,Y,N
구서오시게시장,매일,35.24734164,129.089741,Y,Y
명지시장,매일,35.11253967,128.931598,Y,Y
태평전통시장,매일,36.32593972,127.3976994,Y,Y
유천전통시장,매일,36.31724169,127.3954838,Y,Y
용두전통시장,매일,36.32341318,127.4145695,N,N
오류전통시장,매일,36.32194898,127.407958,Y,N
산성뿌리전통시장,매일,36.30655402,127.3871238,Y,Y
부사전통시장,매일,36.31413817,127.4353766,Y,Y
강남시장,매일,37.50749709,126.7814665,Y,Y
송강전통시장,매일,36.43519975,127.386613,Y,Y
산본시장,매일,37.37016452,126.938529,Y,Y
한민시장,매일,36.33461781,127.3840015,Y,Y
중앙상가시장,매일,36.32961777,127.4311303,Y,Y
대전도매시장,매일,,,Y,Y
인동시장,매일,36.3225352,127.4359133,Y,Y
대전상가시장,매일,36.32178451,127.4366553,Y,N
정원시장,매일,36.32911119,127.4316621,Y,Y
전통중앙도매상가,매일,36.32983375,127.4337042,Y,Y
중앙메가프라자,매일,36.3267328,127.4339543,Y,Y
군포역전시장,매일,37.35386933,126.9476622,Y,Y
민락어패류시장,매일,35.1556955,129.1243612,Y,Y
충렬상가시장,매일,35.19809586,129.1099534,Y,Y
안락상가시장,매일,35.19547988,129.1033085,Y,Y
서원시장,매일,35.20039365,129.0990109,Y,Y
수안인정시장,매일,35.20149174,129.0865781,Y,Y
사직시장,매일,35.20005107,129.0623223,Y,Y
국민시장,매일,35.19840108,129.0582405,Y,Y
신정시장,매일,35.19679122,129.0694863,Y,N
원종종합시장,매일,37.51974201,126.8055478,Y,Y
명장시장,매일,35.20403146,129.1074706,Y,N
초량전통시장,매일,35.11804138,129.0396662,Y,N
초량상가시장,매일,35.11890115,129.0399838,Y,N
수정전통시장,매일,,,N,N
수정시장,매일,35.12823716,129.0463919,Y,Y
범일골목시장,매일,35.14161538,129.0544611,Y,N
부산진시장,매일,35.13642531,129.0588399,Y,Y
부산남문시장,매일,35.13592329,129.0586847,Y,Y
부산자유시장,매일,35.14096583,129.0610388,Y,Y
성북시장,매일,35.13855921,129.0481765,Y,Y
우암골목시장,매일,35.12618059,129.0709109,Y,N
용호1동골목시장,매일,35.1243582,129.1102038,Y,Y
용호시장,매일,35.11491426,129.1127725,Y,Y
용호삼성시장,매일,35.12389935,129.1105368,Y,N
용호골목시장,매일,35.11640599,129.1114621,Y,Y
대연시장,매일,35.13567567,129.0884182,Y,Y
못골골목시장,매일,35.13586205,129.0896296,Y,Y
남광시장,매일,35.12399327,129.0887175,Y,N
성곡종합시장,매일,35.17478551,129.0480782,Y,N
전포놀이터시장,매일,35.15872913,129.0673027,Y,N
서면중앙시장,매일,35.16087856,129.0632892,Y,Y
연지시장,매일,35.17090389,129.0513996,N,N
양정전통시장,매일,35.17359419,129.069435,N,N
양정시장,매일,35.17278081,129.0697876,Y,Y
부전기장골목시장,매일,35.16220291,129.0612344,Y,N
서면시장,매일,35.15565904,129.0581395,Y,Y
부산전자종합시장,매일,35.16375165,129.0624353,Y,Y
부전농수산물새벽시장,매일,35.16224371,129.0583055,Y,N
부전상가,매일,35.16034809,129.0595526,Y,Y
부전인삼시장,매일,35.16323429,129.0609058,Y,Y
서면종합시장,매일,35.16191688,129.0589776,Y,Y
부전시장,매일,35.16323429,129.0609058,Y,Y
골드테마거리,매일,35.14193347,129.0597796,Y,Y
철뚝시장,매일,35.14221852,129.061564,N,N
부산평화시장,매일,35.14169298,129.0606731,Y,Y
동평새시장,매일,35.16662939,129.0409121,N,N
국제상가,매일,35.16843795,129.0282049,Y,Y
당감새시장,매일,35.16505858,129.0421458,Y,N
당감골목시장,매일,35.16354772,129.0414277,Y,N
개금큰시장,매일,35.14851071,129.0178858,Y,N
원종중앙시장,매일,37.52507056,126.8023099,Y,Y
가야벽산상가,매일,35.14746265,129.0281338,Y,Y
온천인정시장,매일,35.22311521,129.0831563,Y,Y
금성상가시장,매일,35.20817748,129.0719375,Y,Y
금강시장,매일,35.20162069,129.0685651,Y,N
사하시장,매일,35.09835125,128.986466,Y,Y
괴정골목시장,매일,35.09934084,128.9937052,Y,Y
감천2동시장,매일,35.09387881,129.0088484,Y,Y
감천시장,매일,35.08826986,129.0055375,Y,N
영해종합시장,매일,35.14070935,128.9879557,Y,Y
학장반도보라상가,매일,35.1372845,128.9791729,Y,Y
구덕대림상가,매일,35.13532193,128.9922457,Y,Y
주례럭키종합상가,매일,35.14874465,129.0029195,Y,Y
주례현대무지개상가,매일,35.14496154,129.0049881,Y,Y
부산광역시철강판매협동조합,매일,35.13320862,128.9666014,N,N
부산광역시건축자재판매협동조합,매일,35.13287687,128.9653867,N,Y
모라전통시장,매일,35.18763297,128.9874408,Y,Y
우신종합상가,매일,35.18311806,128.9912824,Y,Y
복이있는덕포시장,매일,35.17128054,128.9822575,Y,N
사상시장,매일,35.1666584,128.9855035,N,N
르네시떼시장,매일,35.16433455,128.9777212,Y,Y
부산산업용품상협동조합,매일,35.15975736,128.9804306,Y,Y
감전시장,매일,35.15610243,128.984607,Y,Y
부산새벽시장,매일,35.15414647,128.9824232,Y,Y
부산산업용재유통상가,매일,35.15329601,128.9810797,Y,Y
감전제일상가시장,매일,35.15632853,128.9845501,Y,N
만덕2동제일상가시장,매일,35.2022338,129.0361266,Y,N
만덕시장,매일,35.21449706,129.0353682,Y,N
덕천시장,매일,35.21121969,129.0134242,Y,Y
구포축산물도매시장,매일,35.19619211,128.9892082,Y,Y
정이있는구포시장,3일+8일,35.20835959,129.0038559,Y,Y
초읍시장,매일,35.17731689,129.0528596,Y,N
광안어패류시장,매일,35.1555939,129.1245334,Y,Y
망미중앙시장,매일,35.17568162,129.106878,Y,Y
망미새상가시장,매일,35.17360458,129.100461,Y,N
망미삼성상가시장,매일,35.16942604,129.1028127,Y,Y
삼익비치A상가시장,매일,35.14321639,129.1139867,Y,Y
남천해변시장,매일,35.13915725,129.1090438,Y,Y
삼익비치B상가시장,매일,35.14321639,129.1139867,Y,Y
광안시장,매일,35.16017853,129.1124667,Y,Y
충무동골목시장,매일,35.09428445,129.023658,Y,Y
충무동해안시장,매일,35.09588564,129.0259893,Y,N
송남시장,매일,35.07851,129.0168108,Y,Y
아미시장,매일,35.09965023,129.0174856,N,N
서대신동골목시장,매일,35.11041299,129.0173233,Y,N
서대신1동골목시장,매일,35.1086586,129.0144397,N,N
대신시장,매일,35.11037336,129.0197021,Y,N
동대신1동골목시장,매일,35.1103097,129.019196,Y,N
충무동새벽시장,매일,35.09302324,129.0247409,Y,Y
에덴골목시장,매일,35.11114738,128.9627261,N,N
하단오일상설시장,2일+7일,35.10372566,128.9708055,Y,Y
단대전통시장,매일,37.44434033,127.1583278,Y,Y
장림골목시장,매일,35.0804627,128.9676804,N,Y
장림시장,매일,35.08093025,128.9677464,Y,Y
성남남한산성시장(은행골목시장),매일,37.4569514,127.1644284,N,N
신평종합시장,매일,35.09162211,128.9767093,Y,Y
하단시장,매일,35.10627945,128.9694852,Y,N
당리시장,매일,35.10546316,128.9753435,Y,Y
다대씨-파크,매일,35.05514162,128.9719714,Y,Y
영산시장,5일+10일,35.45704302,128.5325963,Y,Y
남지시장,2일+7일,35.38911294,128.4824933,Y,Y
비봉시장,매일,35.19549686,128.0852141,N,N
평거한보하이타운,매일,35.17261455,128.05929,Y,Y
천전시장,매일,35.18505421,128.0885772,Y,N
진주논개시장(장대시장),매일,35.19506184,128.0872175,Y,Y
일반성시장,3일+8일,35.17121682,128.2822147,Y,Y
이현종합상가,매일,35.19198664,128.0661291,Y,Y
진주청과시장,매일,35.19624733,128.0866843,N,N
자유시장,매일,35.18016981,128.1103469,Y,Y
동부종합상가,매일,35.18704685,128.1162152,Y,N
새서부시장,2일+7일,35.19494636,128.0759288,Y,N
문산시장,4일+9일,35.17042347,128.1691246,Y,Y
진주중앙시장,매일,35.19391998,128.0848966,Y,Y
대곡시장,1일+6일,35.26370317,128.168562,Y,N
금곡시장,1일+6일,35.0907536,128.1862332,Y,Y
진주동성상가,매일,35.18091944,128.0893345,Y,Y
의령시장,3일+8일,35.31851286,128.2606632,Y,Y
신반시장,4일+9일,35.46810715,128.3250278,Y,Y
신평시장,3일+8일,35.49059663,129.0858533,Y,N
양산남부시장상가,1일+6일,35.34339273,129.037046,Y,Y
양산남부시장,1일+6일,35.34244341,129.0372311,Y,Y
석계시장,4일+9일,35.41957782,129.06393,Y,Y
서창시장,4일+9일,35.41625784,129.1720087,Y,Y
양산북부시장,매일,35.35045076,129.041194,Y,Y
북동공설시장,매일,35.26617837,128.6206956,Y,Y
대동그린코아상가,매일,35.24508505,128.670389,Y,Y
명서시장,매일,35.24937275,128.6465716,Y,Y
회성종합시장,매일,35.2329295,128.5594101,Y,Y
석전시장,매일,35.23040104,128.5749057,Y,Y
서마산시장,매일,35.22901572,128.5691214,Y,Y
구암현대시장,매일,35.24770952,128.5910363,Y,N
마산역번개시장,매일,35.23672222,128.5787496,Y,Y
마산수산시장,매일,35.20293997,128.5804341,Y,Y
진동전통시장,4일+9일,35.11331794,128.4873368,Y,Y
진동시장,4일+9일,35.11359014,128.487923,Y,Y
정우새어시장,매일,35.20410405,128.5787107,Y,Y
신마산시장,매일,35.18109351,128.5617121,Y,Y
산호시장,매일,35.21837357,128.581716,Y,Y
북마산중앙시장,매일,35.21603828,128.5711777,Y,Y
부림시장,매일,,,Y,Y
부림상시장,매일,35.20612909,128.5729194,Y,Y
신마산반월시장,매일,35.18922274,128.5610113,Y,N
마산어시장,매일,35.20376135,128.5789567,Y,Y
대동씨코아상가시장,매일,35.17975023,128.5624438,Y,Y
월영대시장,매일,35.17946019,128.5576742,Y,N
북마산가구시장,매일,35.21035524,128.5722761,Y,Y
구암시장,매일,35.24953898,128.5996435,Y,Y
창녕상설시장,3일+8일,,,Y,Y
이방정기시장,4일+9일,,,Y,Y
도계부부시장,매일,35.25721522,128.6371383,Y,Y
토월복합상가시장,매일,35.22803686,128.6919407,Y,Y
소계시장,매일,35.25675239,128.5989701,Y,N
봉곡프라자상가,매일,35.24543773,128.659521,Y,Y
명곡종합상가,매일,35.24848527,128.646224,Y,Y
롯데종합상가,매일,35.23403968,128.685431,Y,Y
대동중앙상가,매일,35.2545535,128.6165941,Y,Y
기산프라자,매일,35.20528716,128.58082,Y,Y
경민인터빌상가,매일,35.23190306,128.5838182,Y,Y
창원코아상가,매일,35.22044112,128.6795378,Y,Y
창원캔버라상가,매일,35.22123568,128.6768305,Y,Y
중앙시장(창원중앙시장),매일,35.22720544,128.6760568,Y,Y
양곡유신종합상가,매일,35.20755326,128.6267741,Y,Y
양곡시장,매일,35.20085109,128.628329,Y,Y
성원그랜드쇼핑상가,매일,35.21937212,128.6915851,Y,Y
상남시장,4일+9일,35.22221729,128.6833743,Y,Y
사파동성종합상가,매일,35.21947569,128.702196,Y,Y
반송시장,매일,35.23514045,128.6710424,Y,Y
동성올림픽타운,매일,35.22223259,128.6777296,Y,Y
대방덕산1차상가,매일,35.2136147,128.7068944,Y,Y
성원3차종합상가,매일,35.21499999,128.7052999,Y,Y
대동훼미리코아상가,매일,35.2117479,128.7076239,Y,Y
덕산그린피아상가,매일,35.2216794,128.676027,Y,Y
경창상가,매일,35.22016471,128.6793234,Y,Y
가음정시장,매일,35.20829022,128.6977985,Y,Y
가음대상가,매일,,,Y,Y
하동공설시장,2일+7일,35.0698114,127.7483819,Y,Y
진교공설시장,3일+8일,35.02717394,127.9038204,Y,Y
옥종공설시장,3일+8일,,,Y,Y
북천공설시장,4일+9일,35.1137211,127.8919908,Y,Y
계천공설시장(계천시장),5일+10일,34.9959861,127.8094975,Y,Y
통영중앙전통시장,2일+7일,34.84529762,128.4246206,Y,Y
서호전통시장,매일,34.84147391,128.4201819,Y,Y
북신전통시장,매일,34.85415943,128.4275287,Y,Y
합성대로상가,매일,35.2386927,128.5824458,N,N
코오롱타운상가,매일,35.26570272,128.5256104,Y,Y
역전통합시장,매일,35.23613669,128.5794193,Y,Y
양덕중앙시장,매일,35.23264857,128.5842725,Y,N
합성동상가,매일,35.23772413,128.5834595,Y,Y
동마산시장,매일,35.24003195,128.5875359,Y,Y
합성옛길시장,매일,35.23533684,128.5820071,N,N
창원기계공구상가,매일,35.23376619,128.6410715,Y,Y
진해중앙시장,매일,35.15106741,128.6656454,Y,Y
중부시장,매일,35.15506526,128.6815616,Y,Y
웅천시장,4일+9일,35.11102245,128.7509028,Y,Y
마천시장,5일+10일,35.12557099,128.7822355,Y,Y
경화시장,3일+8일,,,Y,Y
지귀시장,1일+6일,35.24568147,128.6588339,Y,N
소계옛길시장,매일,35.25791524,128.5982678,Y,N
소답시장,2일+7일,35.26563899,128.6212756,Y,Y
봉곡민속체험시장,매일,35.2469697,128.6719663,Y,Y
북부상가시장,2일+7일,35.8534885,129.2075834,Y,Y
중앙신시장,2일+7일,36.56510661,128.7241511,Y,Y
서면시장,5일+10일,35.89506107,129.0480446,Y,Y
봉황중심상가시장,매일,35.84221396,129.2106571,Y,Y
불국시장,4일+9일,35.77599831,129.3008003,Y,Y
건천시장,5일+10일,35.84830099,129.1048124,Y,Y
감포시장,3일+8일,35.80410761,129.502011,Y,Y
하양공설시장,4일+9일,35.91562378,128.8192553,Y,Y
자인공설시장,3일+8일,35.81649983,128.8229427,Y,Y
황남상가시장,매일,35.83566075,129.2103092,N,N
합천시장,3일+8일,35.56850852,128.1611582,Y,Y
초계시장,5일+10일,35.5595647,128.2671002,Y,Y
야로시장,2일+7일,35.70579394,128.1684717,Y,Y
삼가시장,2일+7일,35.41281571,128.1222817,Y,Y
가야시장,5일+10일,35.76024553,128.1383747,Y,Y
지리산함양시장,2일+7일,35.51860419,127.7289883,Y,Y
안의시장,5일+10일,35.62629354,127.8140359,Y,Y
함양토종약초시장,매일,35.62596226,127.8137124,Y,Y
칠원공설시장,3일+8일,35.30564997,128.5195218,Y,Y
대산공설시장,1일+6일,35.35283551,128.4281217,Y,Y
군북공설시장,4일+9일,35.26104644,128.3469542,Y,Y
가야상설시장(가야시장),5일+10일,35.27725861,128.4064722,Y,Y
횡천공설시장(횡천시장),5일+10일,35.10921398,127.8107034,Y,Y
화개장터,매일,35.18862637,127.6242177,Y,Y
자갈치시장,매일,35.09662907,129.030569,Y,Y
형곡시장프라자,매일,36.11287628,128.3343324,Y,Y
해평공설시장,4일+9일,,,Y,Y
장천시장,5일+10일,36.12569593,128.4934096,Y,Y
가락타운상가시장,매일,35.10107699,128.9579668,Y,Y
봉덕신시장,매일,35.84510487,128.6033943,Y,Y
구미종합상가,매일,36.13051882,128.3304432,Y,Y
현대유통쇼핑센타,매일,36.13004562,128.3300464,Y,Y
금오시장,매일,36.12611615,128.3406025,Y,Y
화정동서부시장,매일,35.15303898,126.8792883,N,Y
영주공설시장,매일,36.82255263,128.6263234,Y,Y
선산봉황시장,2일+7일,36.23951857,128.300921,Y,Y
구미파크시장,매일,36.14936268,128.3254726,Y,Y
구미공단종합시장,매일,36.12063838,128.3715387,Y,Y
제일시장상가,매일,36.10172307,128.3841129,Y,Y
고령대가야시장,4일+9일,35.72731251,128.2666754,Y,Y
외동시장,3일+8일,35.71460009,129.3257089,Y,Y
산내시장,3일+8일,35.75781767,129.0464768,Y,Y
북정로중심상가시장,매일,35.84229272,129.2151854,Y,Y
경주중심상가시장,매일,35.84225687,129.2146864,Y,Y
선비골전통시장,매일,36.82425135,128.6231913,Y,Y
양남시장,4일+9일,35.67538063,129.4636531,Y,Y
불국사상가시장,매일,35.78599622,129.3278545,Y,Y
양북시장,5일+10일,35.79041062,129.4412131,Y,Y
용상공설시장,매일,36.55947454,128.7501611,Y,Y
경주성동공설시장,매일,35.84554327,129.2162829,Y,Y
연서시장,매일,37.6196977,126.9221717,Y,Y
돈암시장,매일,37.59153032,127.0159199,Y,N
공릉동도깨비시장,매일,37.62269001,127.0762455,N,Y
성주시장,2일+7일,35.9150289,128.2854812,Y,Y
화령시장,3일+8일,36.44479866,127.9506906,Y,Y
함창시장,1일+6일,,,Y,Y
은척시장,4일+9일,36.53266616,128.0729497,Y,Y
남성시장,2일+7일,36.41440724,128.1621176,N,N
풍물시장,2일+7일,36.41285383,128.1606228,Y,Y
상주중앙시장,2일+7일,36.41319426,128.1608286,Y,Y
억지춘양시장,4일+9일,36.93634466,128.913044,Y,Y
봉화내성시장,2일+7일,36.88898151,128.7394689,Y,Y
봉화상설시장,2일+7일,36.89035721,128.7349285,Y,Y
문경중앙시장,매일,36.60138925,128.2041632,Y,Y
점촌전통시장 (구 신흥시장),3일+8일,36.60138925,128.2041632,Y,Y
(유)문경시중앙시장,매일,36.59353126,128.1973386,Y,Y
문경전통시장,2일+7일,36.73558209,128.1074832,Y,Y
가은아자개시장,4일+9일,36.64660911,128.0609864,Y,Y
암사종합시장,매일,37.55085327,127.1288173,Y,Y
평화시장,5일+10일,36.12364342,128.1130862,Y,Y
부곡시장,매일,36.12583421,128.1042196,Y,Y
중앙시장,매일,36.11902271,128.125383,Y,Y
의흥시장,5일+10일,36.17425304,128.716305,Y,Y
군위전통시장,3일+8일,36.23975138,128.5679239,Y,Y
인동시장,2일+7일,36.10819473,128.4209289,Y,Y
예천상설시장,2일+7일,36.65598537,128.4561501,Y,Y
예천맛고을시장,매일,36.65689278,128.4548923,N,Y
영천공설시장,2일+7일,35.96425248,128.9385821,Y,Y
신녕공설시장,3일+8일,36.04209299,128.7874777,Y,Y
금호공설시장,3일+8일,35.93166906,128.8733589,Y,Y
교동시장,매일,34.73896529,127.730219,Y,N
인천축산물시장,매일,37.47899257,126.6884579,Y,Y
정서진중앙시장,매일,37.51857454,126.675941,Y,Y
십정종합시장(열우물전통시장),매일,37.47340163,126.6955036,Y,Y
풍기토종인삼시장,매일,36.87026011,128.5224189,Y,Y
풍기선비골인삼시장,매일,36.88850301,128.5406893,Y,Y
풍기중앙시장,매일,36.8706025,128.5281959,Y,Y
영주문화시장,매일,36.8239126,128.6235074,Y,N
소래포구전통어시장,매일,37.3974554,126.738637,Y,Y
작전시장,매일,37.53248265,126.7243153,Y,Y
영주골목시장,매일,36.82449267,128.6229875,Y,Y
계양산전통시장,매일,37.54803218,126.7394444,Y,Y
영양시장,4일+9일,,,Y,Y
영해만세시장,5일+10일,36.54088955,129.4071791,Y,Y
남정시장,2일+7일,36.28554787,129.3728791,Y,Y
강구시장,3일+8일,36.35834827,129.3795018,Y,Y
구담공설시장,4일+9일,36.54171762,128.4647059,Y,Y
계산시장,매일,37.53927741,126.7248447,Y,Y
안동서부시장,2일+7일,36.56527506,128.7149733,Y,Y
북문시장,2일+7일,36.56851589,128.7326157,Y,Y
전주중앙상가,매일,35.82522103,127.1424489,Y,Y
화목시장,1일+6일,36.27534895,128.89736,Y,Y
도평시장,5일+10일,36.290109,129.0170773,Y,Y
청송시장,4일+9일,36.43514221,129.0521134,Y,Y
진보시장,3일+8일,36.52833051,129.0464125,Y,Y
안덕시장,4일+9일,,,Y,Y
부남시장,3일+8일,36.34650543,129.0644413,Y,Y
풍각공설시장,1일+6일,35.64090247,128.6186232,Y,Y
군산공설시장,매일,35.98316656,126.7203241,Y,Y
동곡공설시장,1일+6일,35.69205739,128.8910781,Y,Y
의성염매시장,매일,36.35022877,128.6956069,Y,Y
의성공설재래시장,2일+7일,36.3451135,128.699851,Y,Y
안계공설시장,1일+6일,36.38442056,128.4383426,Y,Y
봉양시장,5일+10일,36.29925956,128.5815931,Y,Y
함평천지전통시장,2일+7일,35.06373037,126.5234259,Y,Y
금성시장,1일+6일,36.25617739,128.6814114,Y,Y
후포시장,3일+8일,36.67787465,129.4442245,Y,Y
평해시장,2일+7일,36.72694696,129.4424335,Y,Y
죽변시장,3일+8일,37.05897952,129.4222545,Y,Y
울진바지게시장,2일+7일,36.99192061,129.4022797,Y,Y
흥부시장,1일+6일,37.10360525,129.3753791,Y,N
매화시장,3일+8일,36.90980624,129.3799227,N,Y
척산시장,1일+6일,36.79693438,129.4512978,Y,N
풍양시장,3일+8일,36.50926978,128.2998047,Y,Y
용궁시장,4일+9일,36.60702184,128.2753688,Y,Y
예천중앙시장,2일+7일,36.6574335,128.4578325,Y,Y
죽도시장,매일,36.03641447,129.3681411,Y,Y
장량성도시장,매일,36.06827244,129.3813701,Y,N
양학시장,매일,36.02727113,129.3497432,Y,Y
영일대북부시장,매일,36.04629733,129.3691029,Y,Y
두호1시장,매일,36.06172603,129.3693658,Y,Y
그린종합시장,매일,36.06728944,129.3809631,Y,Y
환호그린빌시장,매일,36.06813183,129.3911427,Y,Y
한라종합시장,매일,36.04122465,129.3512673,Y,Y
죽도어시장,매일,36.03513455,129.3690789,Y,Y
중앙상가,매일,36.04016574,129.3661568,Y,Y
흥해시장,2일+7일,36.11061401,129.3482939,Y,Y
기계시장,2일+7일,36.06996359,129.2045078,Y,N
해도5(형산)시장,매일,36.01270248,129.3664934,Y,Y
상대종합시장,매일,36.01993112,129.3611077,Y,N
남부시장,매일,36.01262132,129.3561505,Y,Y
포항큰동해시장,매일,36.02655548,129.3709848,Y,Y
영남시장,매일,35.9879517,129.4496824,Y,Y
대해불빛시장,매일,36.01879903,129.3685564,Y,Y
효자시장,매일,36.00799585,129.3315835,Y,Y
연일전통시장,3일+8일,35.99635173,129.3486811,Y,Y
포항운하송림시장,매일,36.02820448,129.3763138,Y,N
청림시장,매일,35.99657827,129.4103564,Y,Y
오천시장,5일+10일,35.96647172,129.4142295,Y,Y
오천삼광시장,매일,35.97830244,129.4123387,Y,N
구룡포시장,3일+8일,35.99031583,129.5540012,Y,Y
서부아침시장,매일,37.18331647,128.466754,Y,Y
양양전통시장,4일+9일,38.07506326,128.6232929,Y,Y
양구중앙시장,5일+10일,38.10410757,127.9893261,Y,Y
속초관광수산시장(구 속초중앙전통시장),매일,38.20540516,128.5893558,Y,Y
속초종합중앙시장,매일,38.20452003,128.5901927,Y,Y
삼척번개시장,매일,37.43090173,129.178574,Y,Y
도계중앙시장,매일,37.23514806,129.0451104,Y,Y
도계전두시장,매일,37.22913383,129.0428073,Y,Y
삼척중앙시장,2일+7일,37.44210346,129.1646216,Y,Y
중동사랑시장(부천중동시장),매일,37.49497098,126.764586,Y,Y
동쪽바다중앙시장,매일,37.55104769,129.1085683,Y,Y
묵호항 자연산 수산물 판매시장,매일,37.55205496,129.1162115,Y,N
묵호시장,매일,37.55235235,129.1141946,Y,Y
동해남부재래시장,매일,37.48760966,129.1035498,Y,Y
거진전통시장,1일+6일,38.44748216,128.4543896,Y,Y
간성전통시장,2일+7일,38.37994273,128.4694508,Y,Y
주문진좌판풍물시장,매일,37.89171625,128.8293151,Y,N
주문진종합시장,매일,37.8914385,128.8269078,Y,Y
주문진수산시장,매일,37.89097097,128.8280009,Y,Y
주문진건어물시장,매일,37.89114842,128.8287555,Y,Y
강릉서부시장,매일,37.75505954,128.8907988,Y,Y
강릉동부시장,매일,37.7600498,128.9006624,Y,Y
강릉성남시장,매일,37.75344795,128.8992217,Y,Y
중앙시장,매일,37.75401611,128.8986236,Y,Y
덕계종합상설시장,매일,35.36975442,129.1471525,Y,Y
단계시장,4일+9일,35.37712433,128.0111488,Y,Y
덕산시장,4일+9일,35.2770275,127.8377507,Y,Y
생초시장,3일+8일,35.49280603,127.8351909,Y,Y
산청시장,1일+6일,35.41530225,127.8763044,Y,Y
단성시장,5일+10일,35.29792788,127.9580631,Y,Y
사천읍시장,매일,35.08405876,128.08901,Y,Y
완사시장,1일+6일,35.13122005,127.9763483,Y,Y
삼천포중앙시장,4일+9일,34.92892254,128.0767148,Y,Y
서포시장,4일+9일,35.00686028,127.9779028,Y,Y
삼천포전통수산시장,매일,34.92717247,128.069893,Y,Y
삼천포용궁수산시장,매일,34.92743545,128.0717569,Y,Y
삼천포종합시장,4일+9일,34.93234179,128.0785407,Y,Y
곤양종합시장,5일+10일,35.05653208,127.9633461,Y,Y
수산시장,3일+8일,35.37422786,128.7087852,Y,Y
송지시장,4일+9일,35.39686406,128.8371964,Y,Y
송백시장,5일+10일,35.58629962,128.8817037,Y,Y
무안시장(무안임시시장),1일+6일,35.47019254,128.6520424,Y,Y
밀양아리랑시장,2일+7일,35.49306115,128.7525542,Y,Y
내일전통시장,2일+7일,35.49332954,128.7533093,Y,Y
이동공설시장,5일+10일,34.80113755,127.9538197,Y,Y
남해전통시장,2일+7일,34.84014878,127.89449,Y,Y
남면공설시장,4일+9일,34.770945,127.8853533,Y,Y
주촌축산물시장,매일,35.22608524,128.8124154,N,Y
진영전통시장,4일+9일,35.30231684,128.7306322,Y,Y
진례전통시장,5일+10일,35.24867545,128.7489254,Y,Y
외동전통시장,매일,35.2329309,128.8660031,N,Y
경주중앙시장,2일+7일,35.84395286,129.2067435,Y,Y
삼방시장,매일,35.25078662,128.9096859,Y,Y
김해전통시장(김해동상시장),매일,35.23624089,128.883862,Y,Y
배둔시장,4일+9일,35.05736208,128.3691501,Y,Y
영오시장,2일+7일,35.10895031,128.2376737,Y,Y
고성공룡시장,매일,34.97266192,128.3233371,Y,Y
고성시장,1일+6일,34.97730013,128.3230514,Y,Y
거창시장,1일+6일,35.68700298,127.9138722,Y,Y
거제읍내시장,3일+8일,34.85055855,128.5903037,Y,N
장평종합시장,매일,34.89086439,128.6131111,Y,Y
거제고현시장,매일,34.88542879,128.624008,Y,Y
신부시장,매일,34.8677231,128.7295445,Y,Y
옥현상가,매일,34.89692237,128.6899341,Y,Y
옥포국제시장,매일,34.89435922,128.6895425,Y,Y
옥수시장,매일,34.87534685,128.7308743,Y,Y
옥수동새시장,매일,34.87539656,128.7319145,Y,Y
한라프라자,매일,34.88820169,128.6235595,Y,Y
발안만세시장,5일+10일,37.13145931,126.9094512,Y,Y
조암시장,4일+9일,37.08354443,126.818488,Y,Y
금촌전통시장,1일+6일,37.76261761,126.7738861,Y,Y
양동쌍학시장,4일+9일,37.42017548,127.7531956,Y,Y
남양시장,1일+6일,37.20902222,126.8159971,Y,Y
청구문화시장,매일,37.37665581,127.1162348,Y,Y
역곡상상시장,매일,37.48757743,126.8118954,Y,Y
